{
  "basicfit": [
    {
      "id": "basicfit-paris-bercy",
      "name": "Basic-Fit Paris Bercy",
      "brand": "Basic-Fit",
      "address": "24 Rue de Bercy",
      "postal_code": "75012",
      "city": "Paris",
      "latitude": 48.84005,
      "longitude": 2.3831,
      "monthly_price": 24.99,
      "currency": "EUR",
      "amenities": [
        "24/7",
        "Cours collectifs virtuels",
        "Zone functional training"
      ],
      "website": "https://www.basic-fit.com/fr-fr/clubs/basic-fit-paris-bercy"
    },
    {
      "id": "basicfit-lille-euralille",
      "name": "Basic-Fit Lille Euralille",
      "brand": "Basic-Fit",
      "address": "150 Centre Commercial Euralille",
      "postal_code": "59777",
      "city": "Lille",
      "latitude": 50.63709,
      "longitude": 3.06971,
      "monthly_price": 22.99,
      "currency": "EUR",
      "amenities": [
        "Zone cycle",
        "Cours virtuels",
        "Espace musculation"
      ],
      "website": "https://www.basic-fit.com/fr-fr/clubs/basic-fit-lille-euralille"
    }
  ],
  "fitnesspark": [
    {
      "id": "fitnesspark-lyon-part-dieu",
      "name": "Fitness Park Lyon Part-Dieu",
      "brand": "Fitness Park",
      "address": "91 Cours Lafayette",
      "postal_code": "69006",
      "city": "Lyon",
      "latitude": 45.76266,
      "longitude": 4.85538,
      "monthly_price": 29.95,
      "currency": "EUR",
      "amenities": [
        "Espace musculation",
        "Cardio-training",
        "Studio biking"
      ],
      "website": "https://www.fitnesspark.fr/clubs/lyon-part-dieu/"
    },
    {
      "id": "fitnesspark-bordeaux-lac",
      "name": "Fitness Park Bordeaux Lac",
      "brand": "Fitness Park",
      "address": "Rue du Professeur Georges Jeanneney",
      "postal_code": "33300",
      "city": "Bordeaux",
      "latitude": 44.88798,
      "longitude": -0.56416,
      "monthly_price": 29.95,
      "currency": "EUR",
      "amenities": [
        "Parking gratuit",
        "Studio biking",
        "Zone cross training"
      ],
      "website": "https://www.fitnesspark.fr/clubs/bordeaux-lac/"
    }
  ],
  "neoness": [
    {
      "id": "neoness-paris-chatelet",
      "name": "Neoness Paris Châtelet",
      "brand": "Neoness",
      "address": "5 Rue de la Ferronnerie",
      "postal_code": "75001",
      "city": "Paris",
      "latitude": 48.86078,
      "longitude": 2.34699,
      "monthly_price": 19.9,
      "currency": "EUR",
      "amenities": [
        "Cardio",
        "Cross-training",
        "Studio danse"
      ],
      "website": "https://www.neoness.fr/salle-de-sport/paris-chatelet"
    },
    {
      "id": "neoness-paris-nation",
      "name": "Neoness Paris Nation",
      "brand": "Neoness",
      "address": "21 Boulevard de Charonne",
      "postal_code": "75011",
      "city": "Paris",
      "latitude": 48.85267,
      "longitude": 2.39544,
      "monthly_price": 22.9,
      "currency": "EUR",
      "amenities": [
        "Zone poids libres",
        "Espace cardio",
        "Cours collectifs"
      ],
      "website": "https://www.neoness.fr/salle-de-sport/paris-nation"
    }
  ],
  "onair": [
    {
      "id": "onair-marseille-prado",
      "name": "On Air Marseille Prado",
      "brand": "On Air",
      "address": "6 Avenue du Prado",
      "postal_code": "13006",
      "city": "Marseille",
      "latitude": 43.28535,
      "longitude": 5.37897,
      "monthly_price": 34.9,
      "currency": "EUR",
      "amenities": [
        "Cours collectifs live",
        "Espace cross training",
        "Sauna"
      ],
      "website": "https://www.onair-fitness.fr/clubs/marseille-prado"
    },
    {
      "id": "onair-nice-lingostiere",
      "name": "On Air Nice Lingostière",
      "brand": "On Air",
      "address": "652 Route de Grenoble",
      "postal_code": "06200",
      "city": "Nice",
      "latitude": 43.70853,
      "longitude": 7.19748,
      "monthly_price": 39.9,
      "currency": "EUR",
      "amenities": [
        "Espace premium",
        "Cours immersive",
        "Studio cycling"
      ],
      "website": "https://www.onair-fitness.fr/clubs/nice-lingostiere"
    }
  ]
}
